{ "restaurants":
    [{
        "name":"Keefer Court",
        "url":"http://www.yelp.com/biz/keefer-court-bakery-and-caf%C3%A9-minneapolis-2"
        "type":"A Chinese bakery and restarant",
        "address":"326 Cedar Ave S Minneapolis, MN 55454",
        "phone":"(612) 340-0937",
        "rating":"9/10",
        "hours":[
				{"day": "Mon-Fri", "time": "10:00am - 9:00pm"},
				{"day": "Tues", "time": "Closed"}
		],
		"picture":"keefer.jpg"
    },
    {
        "name":"Chipotle Mexican Grill",
        "url":"http://www.yelp.com/biz/chipotle-mexican-grill-minneapolis"
        "type":"You have to be living under a rock to not know",
        "address":"800 Washington Ave SE Minneapolis, MN 55414",
        "phone":"(612) 378-7078",
        "rating":"9/10",
        "hours":[
				{"day": "Sun-Sat", "time": "11:00am - 10:00pm"},
		],
		"picture":"chipotle.jpg"
    },
    {
        "name":"Kowloon",
        "url":"http://www.yelp.com/biz/kowloon-restaurant-minneapolis"
        "type":"Among one of the better Chinese restaurants around campus.",
        "address":"935 Washington Ave SE Minneapolis, MN 55414",
        "phone":"(612) 623-3888",
        "rating":"7/10",
        "hours":[
				{"day": "Mon-Fri", "time": "10:30am - 10:00pm"}
		],
	    "picture":"kowloon.jpg"
    },
    {
        "name":"Five Guys Burgers and Fries",
        "url":"http://www.yelp.com/biz/five-guys-burgers-and-fries-minneapolis"
        "type":"Award winning burger joint.",
        "address":"1413 4th St SE Minneapolis, MN 55414",
        "phone":"(612) 355-5500",
        "rating":"8/10",
        "hours":[
				{"day": "Sun-Sat", "time": "11:00am - 10:00pm"}
		],
		"picture":"fiveGuys.jpg"
    },
    {
        "name":"Korea Restaurant",
        "url":"http://www.yelp.com/biz/korea-restaurant-minneapolis"
        "type":"A korean restaurant",
        "address":"221 Oak St SE Minneapolis, MN 55414",
        "phone":"(612) 746-0559",
        "rating":"7/10",
        "hours":[
				{"day": "Mon-Sat", "time": "11:00am - 9:00pm"}
		],
		"picture":"korea.jpg"
    }]
}